[
  {
    "name": "古亭河濱公園  籃球場",
    "sports": ["籃球"],
    "location": "100台北市中正區水源路9-3號",
    "time": "08:00 ~ 22:00",
    "lat": 25.014556528833396,
    "lng": 121.52564797658285,
    "K": 915,
    "imgLink": "https://vbs.sports.taipei/_/UD/1689039342029720800_210x157.jpg"
  },
  {
    "name": "古亭河濱公園  羽球場",
    "sports": ["羽球"],
    "location": "100台北市中正區水源路",
    "time": "08:00 ~ 22:00",
    "lat": 25.02160592277566,
    "lng": 121.52166061770166,
    "K": 456,
    "imgLink": "https://vbs.sports.taipei/_/UD/1625447625078130500_210x157.jpg"
  },
  {
    "name": "古亭河濱公園  網球場",
    "sports": ["網球"],
    "location": "100台北市中正區水源路",
    "time": "08:00 ~ 22:00",
    "lat": 25.020852537129382,
    "lng": 121.52037892222144,
    "K": 305,
    "imgLink": "https://vbs.sports.taipei/_/UD/1689039139062276800_210x157.jpg"
  },
  {
    "name": "中正河濱公園  中正籃球場",
    "sports": ["籃球"],
    "location": "台北市水源路堤防邊 (中正橋下)",
    "time": "08:00 ~ 22:00",
    "lat": 25.023691539609864,
    "lng": 121.51374719325383,
    "K": 272,
    "imgLink": "https://vbs.sports.taipei/_/UD/1689038913003548000_210x157.jpg"
  },
  {
    "name": "中正河濱公園  中正網球場",
    "sports": ["網球"],
    "location": "台北市水源路堤防邊 (中正橋下)",
    "time": "08:00 ~ 22:00",
    "lat": 25.023574209166743,
    "lng": 121.51418000671272,
    "K": 266,
    "imgLink": "https://vbs.sports.taipei/_/UD/1507386897012298100_249x140.jpg"
  },
  {
    "name": "中正河濱公園  壘球場",
    "sports": ["壘球"],
    "location": "台北市水源路堤防邊 (中正橋下)",
    "time": "08:00 ~ 22:00",
    "lat": 25.019642058472975,
    "lng": 121.51148336438477,
    "K": 265,
    "imgLink": "https://vbs.sports.taipei/_/UD/1506431610067540700_248x140.jpg"
  },
  {
    "name": "新生高架橋下運動場  籃球場",
    "sports": ["籃球"],
    "location": "八德路與市民大道間新生高架橋下",
    "time": "07:00 ~ 24:00",
    "lat": 25.043788403773846,
    "lng": 121.52997190673038,
    "K": 261,
    "imgLink": "https://vbs.sports.taipei/_/UD/1696492496086223500_210x157.jpg"
  },
  {
    "name": "中正運動中心",
    "sports": ["籃球", "健身", "游泳", "羽球", "桌球"],
    "location": "臺北市中正區信義路一段一號",
    "time": "08:00 ~ 22:00",
    "lat": 25.038722515727407,
    "lng": 121.51943517788533,
    "K": 798,
    "imgLink": "https://vbs.sports.taipei/_/UD/1550396630038380100_210x314.jpg"
  },
  {
    "name": "大安運動中心",
    "sports": ["籃球", "健身", "游泳", "羽球", "桌球"],
    "location": "臺北市大安區辛亥路3段55號",
    "time": "08:00 ~ 22:00",
    "lat": 25.020831358829568,
    "lng": 121.54577845759546,
    "K": 796,
    "imgLink": "https://vbs.sports.taipei/_/UD/1550396595099207800_210x157.jpg"
  },
  {
    "name": "大安森林公園  籃球場",
    "sports": ["籃球"],
    "location": "臺北市大安區新生南路三段",
    "time": "08:00 ~ 22:00",
    "lat": 25.031836640614046,
    "lng": 121.53601951527706,
    "K": 716,
    "imgLink": "https://vbs.sports.taipei/_/UD/1545211830053767000_210x157.jpg"
  },
  {
    "name": "華中河濱公園  華中少棒場",
    "sports": ["棒球"],
    "location": "跑馬場至雙園抽水站-新2疏散門至雙園抽水站",
    "time": "08:00 ~ 17:00",
    "lat": 25.01505116730231,
    "lng": 121.4897004662511,
    "K": 1088,
    "imgLink": "https://vbs.sports.taipei/_/UD/1662617393060740800_210x157.jpg"
  },
  {
    "name": "華中河濱公園  籃球場",
    "sports": ["籃球"],
    "location": "跑馬場至雙園抽水站-新2疏散門至雙園抽水站",
    "time": "08:00 ~ 22:00",
    "lat": 25.017083293252423,
    "lng": 121.49207148084895,
    "K": 577,
    "imgLink": "https://vbs.sports.taipei/_/UD/1677136791095673500_210x157.jpg"
  },
  {
    "name": "晨光足球場",
    "sports": ["足球"],
    "location": "跑馬場至雙園抽水站-新2疏散門至雙園抽水站",
    "time": "08:00 ~ 17:00",
    "lat": 25.02163323376313,
    "lng": 121.49121317395088,
    "K": 427,
    "imgLink": "https://vbs.sports.taipei/_/UD/1677136126098323100_210x157.jpg"
  },
  {
    "name": "華中河濱公園  網球場",
    "sports": ["網球"],
    "location": "跑馬場至雙園抽水站-新2疏散門至雙園抽水站",
    "time": "08:00 ~ 22:00",
    "lat": 25.018016628182465,
    "lng": 121.4915564967007,
    "K": 239,
    "imgLink": "https://vbs.sports.taipei/_/UD/1542858106059685900_210x141.jpg"
  },
  {
    "name": "雙園河濱公園  籃球場",
    "sports": ["籃球"],
    "location": "雙園抽水站至華江橋上游側欄杆間",
    "time": "08:00 ~ 22:00",
    "lat": 25.033698093686915,
    "lng": 121.48804200725094,
    "K": 212,
    "imgLink": "https://vbs.sports.taipei/_/UD/1677137297057308500_210x157.jpg"
  },
  {
    "name": "雙園河濱公園  網球場",
    "sports": ["網球"],
    "location": "雙園抽水站至華江橋上游側欄杆間",
    "time": "08:00 ~ 22:00",
    "lat": 25.034272995183134,
    "lng": 121.48832456440094,
    "K": 210,
    "imgLink": "https://vbs.sports.taipei/_/UD/1506523990033073000_248x140.jpg"
  },
  {
    "name": "雙園河濱公園  棒球場",
    "sports": ["棒球"],
    "location": "108台北市萬華區水源路199號",
    "time": "08:00 ~ 22:00",
    "lat": 25.023487091491702,
    "lng": 121.50356153556135,
    "K": 116,
    "imgLink": "https://vbs.sports.taipei/_/UD/1506524046061221300_617x140.jpg"
  },
  {
    "name": "萬華運動中心",
    "sports": ["籃球", "健身", "游泳", "羽球", "桌球"],
    "location": "臺北市萬華區西寧南路6-1號",
    "time": "06:00 ~ 22:00",
    "lat": 25.04756867842193,
    "lng": 121.50678260672397,
    "K": 802,
    "imgLink": "https://vbs.sports.taipei/_/UD/1550396706027903700_210x313.jpg"
  },
  {
    "name": "龍山河濱公園  羽球場",
    "sports": ["羽球"],
    "location": "108台北市萬華區環河南路一段",
    "time": "08:00 ~ 22:00",
    "lat": 25.04284596495118,
    "lng": 121.4995060778935,
    "K": 713,
    "imgLink": "https://vbs.sports.taipei/_/UD/1545202796018090600_210x157.jpg"
  },
  {
    "name": "龍山河濱公園  籃球場",
    "sports": ["籃球"],
    "location": "108台北市萬華區環河南路一段",
    "time": "08:00 ~ 22:00",
    "lat": 25.042491040624025,
    "lng": 121.49954147694561,
    "K": 712,
    "imgLink": "https://vbs.sports.taipei/_/UD/1677137394050788500_210x157.jpg"
  },
  {
    "name": "青年公園運動園區  籃球場",
    "sports": ["籃球"],
    "location": "108台北市萬華區水源路199號",
    "time": "08:00 ~ 22:00",
    "lat": 25.023573118061886,
    "lng": 121.50693779323834,
    "K": 118,
    "imgLink": "https://vbs.sports.taipei/_/UD/1705299136051190200_210x157.jpg"
  },
  {
    "name": "青年公園運動園區  羽球場",
    "sports": ["羽球"],
    "location": "108台北市萬華區水源路199號",
    "time": "08:00 ~ 22:00",
    "lat": 25.021353634014442,
    "lng": 121.5047767778841,
    "K": 119,
    "imgLink": "https://vbs.sports.taipei/_/UD/1506866634087911200_231x140.jpg"
  },
  {
    "name": "青年公園運動園區  網球場",
    "sports": ["網球"],
    "location": "108台北市萬華區水源路199號",
    "time": "08:00 ~ 22:00",
    "lat": 25.02241725755606,
    "lng": 121.50332932688009,
    "K": 117,
    "imgLink": "https://vbs.sports.taipei/_/UD/1675993207098392100_210x157.jpg"
  }
]
